{
  "title": "Landscape",
  "data": [
    {
      "name": "That Wanaka Tree",
      "location": "Wanaka Lake",
      "src": "wanaka.jpg",
      "lat": -44.698579,
      "lng": 169.1148488,
      "date": "2019-02-02",
      "camera": "Sony Alpha 7 II",
      "aperture": "F/18",
      "shutterSpeed": "30",
      "iso": "ISO-100",
      "focalLength": "24mm"
    },
    {
      "name": "Shooting star over Joshua Tree",
      "location": "Joshua Tree National Park",
      "src": "joshua_tree.jpg",
      "lat": 33.9001129,
      "lng": -116.190321,
      "date": "2022-05-08",
      "camera": "Sony Alpha 7 II",
      "aperture": "F/3.5",
      "shutterSpeed": "30",
      "iso": "ISO-1250",
      "focalLength": "15mm"
    },
    {
      "name": "Dawn at Umpire Rock",
      "location": "New York",
      "src": "new_york_central_park.jpg",
      "lat": 40.76924,
      "lng": -73.9777389,
      "date": "2016-03-28",
      "camera": "Sony Alpha 57",
      "aperture": "F/8",
      "shutterSpeed": "1/250",
      "iso": "ISO-100",
      "focalLength": "16mm"
    },
    {
      "name": "Mount Cook",
      "location": "New Zealand",
      "src": "mount_cook.jpg",
      "lat": -43.690667,
      "lng": 170.103167,
      "date": "2019-01-26",
      "camera": "Sony Alpha 7 II",
      "aperture": "F/10",
      "shutterSpeed": "1/200",
      "iso": "ISO-100",
      "focalLength": "26mm"
    },
    {
      "name": "Cloudy Mountain",
      "location": "Olympia National Park",
      "src": "olympia_mountains.jpg",
      "lat": 47.7979579,
      "lng": -123.5143647,
      "date": "2022-06-08",
      "camera": "Sony Alpha 7 II",
      "aperture": "F/8",
      "shutterSpeed": "1/800",
      "iso": "ISO-100",
      "focalLength": "70mm"
    },
    {
      "name": "Kadiut Bridge",
      "location": "Albania",
      "src": "albania.jpg",
      "lat": 40.2443987,
      "lng": 20.4324621,
      "date": "2023-10-29",
      "camera": "Sony Alpha 7 II",
      "aperture": "F/22",
      "shutterSpeed": "1/6",
      "iso": "ISO-100",
      "focalLength": "24mm"
    }
  ]
}
